Country_x,City,Latitude,Longitude,City_ID,Cloudiness,Country_y,Date,Humidity,Lat,Lng,Max Temp,Wind Speed
ru,ostrovnoy,68.05305600000001,39.513056,0,2,RU,1558378754,72,68.05,39.51,37.5,7.16
mu,mahebourg,-20.4080556,57.7,1,75,MU,1558378503,74,-20.41,57.7,78.8,11.41
gl,qaanaaq,77.4894444,-69.3322222,2,25,GL,1558378755,73,77.48,-69.36,22.2,2.37
cn,zhuhai,22.276944,113.567778,3,0,CN,1558378755,39,40.71,112.04,44.6,4.47
za,cape town,-33.925839,18.423218,4,20,ZA,1558378755,76,-33.93,18.42,55.99,8.05
pf,atuona,-9.8,-139.0333333,5,78,PF,1558378755,76,-9.8,-139.03,81.96,16.49
au,flinders,-32.799240000000005,134.211594,6,0,AU,1558378755,62,-34.58,150.85,60.01,11.41
na,opuwo,-18.0666667,13.85,7,0,,1558378523,23,-18.06,13.84,72.06,5.44
ru,tiksi,71.68722199999999,128.869444,8,95,RU,1558378756,88,71.64,128.87,14.1,15.7
ru,pushkinskiye gory,57.020851,28.910296000000002,9,6,RU,1558378756,70,57.02,28.91,65.04,6.93
ru,aykhal,66.0,111.5,10,90,RU,1558378756,48,65.95,111.51,39.2,11.18
br,castro,-24.783333,-50.0,11,0,CL,1558378756,70,-42.48,-73.76,48.2,9.17
cl,castro,-42.463611,-73.80833299999999,11,0,CL,1558378756,70,-42.48,-73.76,48.2,9.17
ck,avarua,-21.207777800000002,-159.775,12,100,CK,1558378756,94,-21.21,-159.78,71.6,2.24
ru,saskylakh,71.916667,114.08333300000001,13,0,RU,1558378757,91,71.97,114.09,4.92,2.26
cl,constitucion,-35.333333,-72.416667,14,5,MX,1558378757,4,23.99,-104.67,84.2,16.11
mx,constitucion,25.036944000000002,-111.66444399999999,14,5,MX,1558378757,4,23.99,-104.67,84.2,16.11
au,albany,-35.003101,117.86595200000001,15,40,US,1558378727,45,42.65,-73.75,82.4,12.75
us,albany,37.8869444,-122.29666670000002,15,40,US,1558378727,45,42.65,-73.75,82.4,12.75
us,albany,31.578333299999997,-84.1558333,15,40,US,1558378727,45,42.65,-73.75,82.4,12.75
us,albany,42.6525,-73.7566667,15,40,US,1558378727,45,42.65,-73.75,82.4,12.75
us,albany,44.6366667,-123.10472220000001,15,40,US,1558378727,45,42.65,-73.75,82.4,12.75
ru,vilyuysk,63.755278000000004,121.62472199999999,16,16,RU,1558378757,59,63.75,121.63,34.62,5.84
ar,ushuaia,-54.8,-68.3,17,75,AR,1558378606,75,-54.81,-68.31,44.6,36.91
mu,bambous virieux,-20.3427778,57.7575,18,75,MU,1558378758,74,-20.34,57.76,78.8,11.41
ru,kodinsk,58.688056,99.184444,19,14,RU,1558378758,81,58.6,99.18,48.84,4.97
bd,teknaf,20.8666667,92.3,20,1,BD,1558378758,85,20.86,92.31,84.66,8.23
au,busselton,-33.652489,115.345497,21,84,AU,1558378758,63,-33.64,115.35,55.0,12.86
id,ambon,-3.6954260000000003,128.181405,22,11,FR,1558378758,93,47.55,-2.56,64.99,5.82
br,maragogi,-9.016667,-35.216667,23,97,BR,1558378610,69,-9.01,-35.22,83.94,9.42
us,fallon,39.47361110000001,-118.7763889,24,90,US,1558378758,53,46.84,-105.12,51.8,18.34
th,kantang,7.405417,99.51561099999999,25,20,TH,1558378759,94,7.42,99.52,78.8,6.93
in,colonelganj,27.133333,81.7,26,0,IN,1558378759,14,27.13,81.7,94.2,5.08
cl,punta arenas,-53.15,-70.916667,27,40,CL,1558378759,61,-53.16,-70.91,50.0,46.08
pf,rikitea,-23.120277800000004,-134.9691667,28,95,PF,1558378669,76,-23.12,-134.97,74.58,12.82
au,new norfolk,-42.78075,147.05938700000002,29,40,AU,1558378759,66,-42.78,147.06,57.99,5.82
na,gobabis,-22.45,18.966666699999998,30,0,,1558378567,24,-22.45,18.97,68.0,2.24
cn,qingdao,36.098611,120.371944,31,0,CN,1558378760,54,36.09,120.35,59.0,2.24
ca,port hardy,50.716667,-127.5,32,90,CA,1558378564,87,50.7,-127.42,53.6,5.82
ru,arman,59.7,150.166667,33,0,RU,1558378760,64,59.7,150.17,31.56,5.3
ru,mamakan,57.816111,114.002778,34,26,RU,1558378760,90,57.82,114.02,31.38,2.82
us,bethel,60.792222200000005,-161.7558333,35,20,US,1558378760,71,60.79,-161.76,51.8,4.68
ca,clinton,43.6,-81.533333,36,75,US,1558378556,54,41.84,-90.19,55.4,10.29
us,clinton,41.278611100000006,-72.5280556,36,75,US,1558378556,54,41.84,-90.19,55.4,10.29
us,clinton,41.84444439999999,-90.18861109999999,36,75,US,1558378556,54,41.84,-90.19,55.4,10.29
us,clinton,38.765,-76.8986111,36,75,US,1558378556,54,41.84,-90.19,55.4,10.29
us,clinton,42.4166667,-71.6833333,36,75,US,1558378556,54,41.84,-90.19,55.4,10.29
us,clinton,32.3413889,-90.32166670000001,36,75,US,1558378556,54,41.84,-90.19,55.4,10.29
us,clinton,38.3686111,-93.7780556,36,75,US,1558378556,54,41.84,-90.19,55.4,10.29
us,clinton,35.515555600000006,-98.9669444,36,75,US,1558378556,54,41.84,-90.19,55.4,10.29
us,clinton,34.4725,-81.88083329999999,36,75,US,1558378556,54,41.84,-90.19,55.4,10.29
us,clinton,36.103333299999996,-84.1319444,36,75,US,1558378556,54,41.84,-90.19,55.4,10.29
us,clinton,41.1397222,-112.0497222,36,75,US,1558378556,54,41.84,-90.19,55.4,10.29
no,varhaug,58.61666700000001,5.65,37,0,NO,1558378761,63,58.61,5.65,64.99,8.05
ru,ayan,56.45,138.166667,38,76,TR,1558378761,58,40.67,33.6,56.94,0.54
py,mayor pablo lagerenza,-19.916667,-60.783333,39,43,PY,1558378761,33,-19.93,-60.77,91.86,14.9
za,hermanus,-34.418696000000004,19.234464000000003,40,9,ZA,1558378761,74,-34.42,19.24,55.0,23.78
ca,torbay,47.65,-52.733332999999995,41,75,CA,1558378627,65,47.66,-52.73,48.0,24.16
ca,yellowknife,62.45,-114.35,42,75,CA,1558378762,26,62.45,-114.38,55.4,8.05
za,kruisfontein,-34.003333000000005,24.731417,43,92,ZA,1558378762,69,-34.0,24.73,55.68,16.53
ec,puerto ayora,-0.75,-90.3166667,44,26,EC,1558378762,86,-0.74,-90.35,79.0,5.99
ni,rosita,13.883333300000002,-84.4,45,72,NI,1558378762,71,13.92,-84.4,84.12,4.41
mg,beloha,-25.1666667,45.05,46,100,MG,1558378762,85,-25.17,45.06,70.08,10.0
vc,port elizabeth,13.016666699999998,-61.2333333,47,20,US,1558378762,46,39.31,-74.98,93.0,12.75
za,port elizabeth,-33.917988,25.570066,47,20,US,1558378762,46,39.31,-74.98,93.0,12.75
za,port alfred,-33.590571999999995,26.891037,48,67,ZA,1558378763,69,-33.59,26.89,61.0,8.01
ph,garchitorena,13.8804,123.6946,49,59,PH,1558378763,75,13.88,123.7,84.3,6.11
us,kodiak,57.79,-152.40722219999998,50,1,US,1558378763,63,39.95,-94.76,53.01,8.05
ar,mar del plata,-38.002278000000004,-57.557539,51,5,AR,1558378763,33,-46.43,-67.52,50.1,18.52
ir,taybad,34.74,60.7756,52,78,IR,1558378763,18,34.74,60.78,80.16,4.88
mx,cabo san lucas,22.883333,-109.9,53,5,MX,1558378605,34,22.89,-109.91,91.0,11.41
pf,tiarei,-17.533333300000002,-149.33333330000002,54,20,PF,1558378764,70,-17.53,-149.33,84.2,10.29
ru,khatanga,71.966667,102.5,55,10,RU,1558378764,92,71.98,102.47,9.96,10.94
pe,pisco,-13.7,-76.2166667,56,0,PE,1558378764,30,-13.71,-76.2,75.99,11.41
ru,kolyvan,55.3053,82.7391,57,0,RU,1558378764,87,55.31,82.74,48.2,4.47
is,hofn,64.25,-15.216667000000001,58,90,IS,1558378764,81,64.25,-15.21,48.2,6.93
id,bontang,0.13333299999999998,117.5,59,54,ID,1558378765,99,0.12,117.47,74.22,2.62
ca,sault sainte marie,46.5,-84.333333,60,1,CA,1558378765,61,46.49,-84.36,50.0,14.99
ru,zhigansk,66.769722,123.37111100000001,61,97,RU,1558378765,84,66.77,123.37,27.24,8.77
ca,thompson,55.75,-97.866667,62,75,CA,1558378765,35,55.74,-97.86,57.2,3.36
us,thompson,41.958611100000006,-71.8630556,62,75,CA,1558378765,35,55.74,-97.86,57.2,3.36
ru,pevek,69.70083299999999,170.313333,63,93,RU,1558378765,71,69.7,170.27,26.16,4.65
gl,nanortalik,60.1166667,-45.216666700000005,64,29,GL,1558378766,72,60.14,-45.24,43.08,4.68
ru,bilibino,68.05,166.333333,65,93,RU,1558378766,89,68.06,166.44,27.6,6.29
ru,dikson,73.50694399999999,80.546389,66,12,RU,1558378766,85,73.51,80.55,20.22,12.15
lk,hambantota,6.116666700000001,81.1166667,67,40,LK,1558378766,100,6.12,81.12,80.6,3.36
pt,beja,38.015064,-7.863227,68,20,PT,1558378766,49,38.02,-7.87,71.6,14.99
br,fortuna,-5.683333,-44.066666999999995,69,20,ES,1558378767,77,38.18,-1.13,69.8,4.7
us,fortuna,40.5983333,-124.1561111,69,20,ES,1558378767,77,38.18,-1.13,69.8,4.7
cv,ponta do sol,17.2,-25.1,70,0,BR,1558378767,57,-20.63,-46.0,73.68,5.32
pt,ponta do sol,32.666667,-17.1,70,0,BR,1558378767,57,-20.63,-46.0,73.68,5.32
gl,qasigiannguit,68.8166667,-51.1833333,71,90,GL,1558378767,86,68.82,-51.19,33.8,4.7
ki,butaritari,3.0833333,172.81666669999998,72,55,KI,1558378767,77,3.07,172.79,83.94,9.13
us,virginia beach,36.8527778,-75.9783333,73,40,US,1558378597,48,36.85,-75.98,91.0,10.29
so,hobyo,5.3513889,48.525555600000004,74,91,SO,1558378767,71,5.35,48.53,83.58,13.49
bm,saint george,32.381666700000004,-64.6780556,75,40,GR,1558378768,33,39.45,22.34,75.2,11.41
us,saint george,37.1041667,-113.58333329999999,75,40,GR,1558378768,33,39.45,22.34,75.2,11.41
br,pontes e lacerda,-15.2,-59.36666700000001,76,41,BR,1558378768,41,-15.23,-59.33,88.44,3.71
qa,khor,25.683889,51.505833,77,100,RU,1558378768,94,47.88,134.96,54.96,7.36
ru,khor,47.886111,134.94638899999998,77,100,RU,1558378768,94,47.88,134.96,54.96,7.36
it,crotone,39.083333,17.133333,78,20,IT,1558378768,67,39.09,17.12,62.6,10.29
np,baglung,28.266666700000002,83.6,79,11,NP,1558378768,58,28.27,83.59,54.24,2.66
nz,raglan,-37.8,174.883333,80,99,NZ,1558378769,53,-37.8,174.87,48.99,1.99
sh,jamestown,-15.933333300000001,-5.7166667,81,84,AU,1558378769,52,-33.21,138.6,54.78,5.86
us,jamestown,42.0969444,-79.2355556,81,84,AU,1558378769,52,-33.21,138.6,54.78,5.86
us,jamestown,46.9105556,-98.7080556,81,84,AU,1558378769,52,-33.21,138.6,54.78,5.86
us,jamestown,41.4969444,-71.3677778,81,84,AU,1558378769,52,-33.21,138.6,54.78,5.86
lb,sur,33.271111100000006,35.196388899999995,82,66,OM,1558378769,57,22.57,59.53,88.26,14.83
om,sur,22.5666667,59.5288889,82,66,OM,1558378769,57,22.57,59.53,88.26,14.83
ml,araouane,18.9,-3.55,83,77,ML,1558378769,18,18.9,-3.53,100.14,15.1
au,emerald,-23.522961,148.157837,84,0,AU,1558378770,82,-23.53,148.16,60.8,6.93
au,launceston,-41.438759000000005,147.134674,85,40,AU,1558378770,93,-41.43,147.14,55.0,14.99
ru,nikolskoye,47.7624,46.4067,86,20,RU,1558378770,56,59.7,30.79,69.01,4.47
ru,nikolskoye,57.808308,41.103322999999996,86,20,RU,1558378770,56,59.7,30.79,69.01,4.47
ru,nikolskoye,59.509167000000005,34.968056,86,20,RU,1558378770,56,59.7,30.79,69.01,4.47
ru,nikolskoye,51.4652,38.8296,86,20,RU,1558378770,56,59.7,30.79,69.01,4.47
ru,nikolskoye,55.193889,165.9925,86,20,RU,1558378770,56,59.7,30.79,69.01,4.47
mg,ambilobe,-13.2,49.05,87,2,MG,1558378770,92,-13.19,49.05,74.76,4.52
br,cidreira,-30.183333,-50.2,88,0,BR,1558378770,66,-30.17,-50.22,76.56,5.5
id,ternate,0.8,127.4,89,20,PH,1558378770,74,14.29,120.72,86.0,1.12
ph,ternate,14.2897,120.7168,89,20,PH,1558378770,74,14.29,120.72,86.0,1.12
br,tarauaca,-8.166667,-70.766667,90,48,BR,1558378771,47,-8.16,-70.77,90.06,1.43
pa,bella vista,7.75,-80.2333333,91,62,AR,1558378771,80,-28.51,-59.05,75.66,7.29
py,bella vista,-22.133333,-56.516667000000005,91,62,AR,1558378771,80,-28.51,-59.05,75.66,7.29
py,bella vista,-27.05,-55.55,91,62,AR,1558378771,80,-28.51,-59.05,75.66,7.29
us,bella vista,36.4813889,-94.27305559999999,91,62,AR,1558378771,80,-28.51,-59.05,75.66,7.29
cn,xichang,27.896421999999998,102.26341500000001,92,19,CN,1558378771,91,27.88,102.25,49.74,2.46
us,antioch,38.005,-121.8047222,93,40,US,1558378507,63,38.0,-121.81,64.99,10.29
us,antioch,42.4772222,-88.0955556,93,40,US,1558378507,63,38.0,-121.81,64.99,10.29
sa,najran,17.466667,44.1,94,75,SA,1558378772,77,17.54,44.22,69.8,11.41
ru,agirish,61.924721999999996,63.023056000000004,95,100,RU,1558378772,88,61.92,63.02,32.82,9.1
pf,mataura,-23.3666667,-149.4666667,96,58,NZ,1558378772,88,-46.19,168.86,48.0,1.99
jp,katsuura,35.133333,140.3,97,90,JP,1558378772,93,33.93,134.5,66.2,5.82
ru,shalinskoye,55.7194,93.7589,98,66,RU,1558378772,63,55.72,93.76,53.7,7.83
us,barrow,71.2905556,-156.7886111,99,100,AR,1558378772,59,-38.31,-60.23,59.64,13.38
id,sorong,-0.883333,131.25,100,95,ID,1558378773,93,-0.86,131.25,77.28,2.01
ca,kingston,44.233333,-76.483333,101,75,CA,1558378724,63,44.23,-76.48,70.0,19.46
jm,kingston,18.0,-76.8,101,75,CA,1558378724,63,44.23,-76.48,70.0,19.46
us,kingston,41.9944444,-70.725,101,75,CA,1558378724,63,44.23,-76.48,70.0,19.46
us,kingston,42.9363889,-71.0538889,101,75,CA,1558378724,63,44.23,-76.48,70.0,19.46
us,kingston,41.9269444,-73.9977778,101,75,CA,1558378724,63,44.23,-76.48,70.0,19.46
us,kingston,41.2616667,-75.8972222,101,75,CA,1558378724,63,44.23,-76.48,70.0,19.46
us,kingston,41.480277799999996,-71.52305559999999,101,75,CA,1558378724,63,44.23,-76.48,70.0,19.46
us,ketchikan,55.34222220000001,-131.6461111,102,1,US,1558378684,76,55.34,-131.65,55.4,17.22
us,kapaa,22.0783333,-159.3219444,103,20,US,1558378773,74,22.08,-159.32,80.6,10.29
ga,mbigou,-1.8833332999999999,11.933333300000001,104,70,GA,1558378773,94,-1.9,11.91,72.6,1.63
cn,yakeshi,49.283333,120.733333,105,100,CN,1558378774,48,49.28,120.73,46.86,20.31
us,hilo,19.729722199999998,-155.09,106,40,US,1558378755,69,19.71,-155.08,79.0,4.7
ca,whitehorse,60.716667,-135.05,107,40,CA,1558378774,36,60.72,-135.06,64.0,3.36
sl,bonthe,7.526388900000001,-12.505,108,63,SL,1558378774,70,7.53,-12.5,85.38,9.78
ph,bara,12.0717,123.6395,109,45,NG,1558378774,25,10.41,10.6,96.54,4.99
ro,bara,47.033333,27.05,109,45,NG,1558378774,25,10.41,10.6,96.54,4.99
sd,bara,13.7,30.366666700000003,109,45,NG,1558378774,25,10.41,10.6,96.54,4.99
us,lompoc,34.639166700000004,-120.45694440000001,110,75,US,1558378662,63,34.64,-120.46,66.99,12.75
in,port blair,11.666667,92.75,111,99,IN,1558378774,71,11.67,92.75,85.2,7.18
za,bredasdorp,-34.532154,20.040308,112,0,ZA,1558378775,62,-34.53,20.04,55.0,8.05
mv,thinadhoo,0.5333333,72.9333333,113,100,MV,1558378775,76,0.53,72.93,85.02,17.0
nc,koumac,-20.5666667,164.2833333,114,0,NC,1558378775,68,-20.56,164.28,74.4,12.86
pf,faanui,-16.4833333,-151.75,115,61,PF,1558378775,74,-16.48,-151.75,82.86,11.59
la,xam nua,20.419722,104.04388900000001,116,100,LA,1558378775,98,20.42,104.04,67.38,2.17
za,east london,-33.011051,27.910049,117,20,ZA,1558378775,72,-33.02,27.91,60.8,27.51
cv,sao filipe,14.9,-24.5166667,118,2,CV,1558378776,84,14.9,-24.5,72.96,16.91
ru,deputatskiy,69.3,139.9,119,47,RU,1558378776,82,69.3,139.9,8.52,3.31
uy,chuy,-33.6833333,-53.45,120,96,UY,1558378776,91,-33.69,-53.46,65.58,13.78
us,sitka,57.0530556,-135.33,121,100,US,1558378776,98,37.17,-99.65,48.99,11.99
it,forio,40.733333,13.85,122,75,IT,1558378777,77,40.73,13.86,62.6,6.93
ru,russkaya polyana,53.77944399999999,73.880556,123,100,RU,1558378777,80,53.78,73.88,45.24,6.76
ua,russkaya polyana,49.420947999999996,31.922065000000003,123,100,RU,1558378777,80,53.78,73.88,45.24,6.76
cl,san felipe,-32.75,-70.733333,124,37,CL,1558378777,95,-32.75,-70.73,51.01,1.01
cr,san felipe,9.904882,-84.105512,124,37,CL,1558378777,95,-32.75,-70.73,51.01,1.01
gt,san felipe,14.616667000000001,-91.6,124,37,CL,1558378777,95,-32.75,-70.73,51.01,1.01
mx,san felipe,31.0,-114.86666699999999,124,37,CL,1558378777,95,-32.75,-70.73,51.01,1.01
mx,san felipe,21.27,-101.492222,124,37,CL,1558378777,95,-32.75,-70.73,51.01,1.01
ph,san felipe,14.0184,122.9295,124,37,CL,1558378777,95,-32.75,-70.73,51.01,1.01
ph,san felipe,15.5014,120.9078,124,37,CL,1558378777,95,-32.75,-70.73,51.01,1.01
ph,san felipe,16.0575,120.6271,124,37,CL,1558378777,95,-32.75,-70.73,51.01,1.01
ph,san felipe,15.816667,120.6,124,37,CL,1558378777,95,-32.75,-70.73,51.01,1.01
ph,san felipe,15.0624,120.0702,124,37,CL,1558378777,95,-32.75,-70.73,51.01,1.01
ve,san felipe,10.3405556,-68.7372222,124,37,CL,1558378777,95,-32.75,-70.73,51.01,1.01
br,arraial do cabo,-22.966667,-42.016667,125,0,BR,1558378491,78,-22.97,-42.02,84.2,4.7
gb,margate,51.383333,1.416667,126,40,AU,1558378778,66,-43.03,147.26,57.99,5.82
us,margate,26.2441667,-80.2066667,126,40,AU,1558378778,66,-43.03,147.26,57.99,5.82
za,margate,-30.863595,30.370521999999998,126,40,AU,1558378778,66,-43.03,147.26,57.99,5.82
ca,aklavik,68.216667,-135.0,127,75,CA,1558378563,50,68.22,-135.01,55.4,3.09
ru,lokosovo,61.13333299999999,74.81666700000001,128,100,RU,1558378778,68,61.13,74.84,44.52,9.17
nc,paita,-22.1333333,166.3666667,129,0,PE,1558378778,290,-5.09,-81.11,62.6,17.22
pe,paita,-5.0841667,-81.1105556,129,0,PE,1558378778,290,-5.09,-81.11,62.6,17.22
co,cravo norte,6.301735,-70.204154,130,100,CO,1558378778,67,6.3,-70.2,85.02,3.09
ru,motygino,58.18305600000001,94.759167,131,85,RU,1558378778,84,58.18,94.69,49.2,5.23
us,west wendover,40.7391667,-114.0725,132,40,US,1558378779,66,40.74,-114.07,51.8,4.7
dz,adrar,27.9,-0.2833333,133,40,DZ,1558378779,17,27.87,-0.29,89.6,28.86
it,melfi,41.0,15.65,134,20,IT,1558378779,87,41.0,15.66,59.0,10.29
td,melfi,11.0597222,17.9330556,134,20,IT,1558378779,87,41.0,15.66,59.0,10.29
tz,kibaya,-5.3,36.5666667,135,75,RW,1558378779,88,-2.2,30.56,66.2,3.36
ca,iqaluit,63.733332999999995,-68.5,136,90,CA,1558378780,86,63.75,-68.52,33.8,6.93
ru,lavrentiya,65.583333,-171.0,137,31,RU,1558378780,95,65.58,-170.99,28.32,6.4
mg,morondava,-20.283333300000002,44.283333299999995,138,0,MG,1558378780,69,-20.3,44.28,79.08,9.06
to,vaini,-21.2,-175.2,139,0,IN,1558378780,88,15.34,74.49,78.9,1.59
ca,georgetown,43.65,-79.93333299999999,140,75,GY,1558378612,83,6.8,-58.16,82.4,11.41
gy,georgetown,6.8,-58.1666667,140,75,GY,1558378612,83,6.8,-58.16,82.4,11.41
sh,georgetown,-7.9333333,-14.416666699999999,140,75,GY,1558378612,83,6.8,-58.16,82.4,11.41
us,georgetown,38.69,-75.3858333,140,75,GY,1558378612,83,6.8,-58.16,82.4,11.41
us,georgetown,38.2097222,-84.55888890000001,140,75,GY,1558378612,83,6.8,-58.16,82.4,11.41
us,georgetown,33.3766667,-79.29472220000001,140,75,GY,1558378612,83,6.8,-58.16,82.4,11.41
us,georgetown,30.6325,-97.6769444,140,75,GY,1558378612,83,6.8,-58.16,82.4,11.41
vc,georgetown,13.266666699999998,-61.1166667,140,75,GY,1558378612,83,6.8,-58.16,82.4,11.41
cn,sanchazi,42.081666999999996,126.600278,141,0,CN,1558378781,82,30.43,103.62,64.4,2.24
in,sarai mir,26.016667,82.916667,142,0,IN,1558378781,35,26.02,82.92,86.0,3.36
cn,yichun,27.833333000000003,114.4,143,89,CN,1558378781,98,47.72,128.88,41.64,3.58
cn,yichun,47.7,128.9,143,89,CN,1558378781,98,47.72,128.88,41.64,3.58
us,plainview,40.77638889999999,-73.4677778,144,40,US,1558378590,37,34.18,-101.71,84.99,18.34
us,plainview,34.1847222,-101.70638890000001,144,40,US,1558378590,37,34.18,-101.71,84.99,18.34
ar,comodoro rivadavia,-45.864135,-67.496558,145,0,AR,1558378608,37,-45.87,-67.48,55.4,16.11
az,nardaran,40.556111,50.005556,146,40,AZ,1558378782,52,40.56,50.01,66.2,19.46
do,nagua,19.3833333,-69.83333329999999,147,75,DO,1558378782,70,19.37,-69.85,89.6,6.93
om,ibra,22.6902778,58.5469444,148,100,OM,1558378782,41,22.69,58.55,87.18,17.4
cn,ganzhou,25.85,114.933333,149,1,CN,1558378783,66,25.86,114.93,64.32,3.42
ru,talnakh,69.4865,88.3972,150,75,RU,1558378783,92,69.49,88.39,15.8,29.08
mx,coahuayana,18.7,-103.658333,151,1,MX,1558378783,22,18.62,-100.35,100.5,4.38
gf,sinnamary,5.383333299999999,-52.95,152,100,GF,1558378783,81,5.38,-52.96,82.5,10.96
cv,porto novo,17.033333300000002,-25.0666667,153,20,BR,1558378783,53,-23.68,-45.44,77.0,4.7
no,havoysund,71.000556,24.696111,154,20,NO,1558378784,80,71.0,24.66,39.2,24.16
no,bjornevatn,69.667222,29.984721999999998,155,75,NO,1558378688,93,69.67,29.98,37.4,20.8
gl,narsaq,77.3025,-68.8425,156,20,GL,1558378784,28,60.91,-46.05,57.2,9.17
kn,charlestown,17.1333333,-62.6166667,157,1,US,1558378784,64,41.38,-71.64,87.01,12.75
us,charlestown,43.2386111,-72.425,157,1,US,1558378784,64,41.38,-71.64,87.01,12.75
us,charlestown,41.383055600000006,-71.6422222,157,1,US,1558378784,64,41.38,-71.64,87.01,12.75
th,trat,12.241028,102.515472,158,93,TH,1558378784,70,12.25,102.51,91.0,1.88
id,manado,1.4869999999999999,124.8455,159,40,ID,1558378784,100,1.49,124.85,73.4,4.97
it,trapani,38.016667,12.483333,160,20,IT,1558378785,72,38.02,12.54,66.2,17.22
br,sao joao da barra,-21.633333,-41.05,161,40,BR,1558378785,55,-21.64,-41.05,86.0,3.36
re,saint-philippe,-21.35,55.7666667,162,75,CA,1558378785,53,45.36,-73.48,75.0,29.97
ca,haines junction,60.75,-137.5,163,11,CA,1558378785,48,60.75,-137.51,51.18,7.23
np,kathmandu,27.7166667,85.3166667,164,75,NP,1558378762,73,27.71,85.32,71.6,6.67
ca,norman wells,65.283333,-126.85,165,75,CA,1558378785,45,65.28,-126.83,66.2,6.93
us,brainerd,46.35805560000001,-94.2005556,166,1,US,1558378527,40,46.36,-94.2,63.0,5.82
cn,yumen,39.833333,97.733333,167,2,CN,1558378785,10,40.29,97.04,59.1,1.5
no,straumen,67.35,15.6,168,0,NO,1558378786,52,63.87,11.3,68.0,9.17
no,straumen,63.86666700000001,11.3,168,0,NO,1558378786,52,63.87,11.3,68.0,9.17
pt,camacha,33.083333,-16.333333,169,40,PT,1558378786,72,33.08,-16.33,68.0,14.99
ru,teya,60.377778,92.626667,170,75,MX,1558378786,39,21.05,-89.07,99.0,16.11
ru,vitim,59.451111,112.557778,171,81,RU,1558378786,83,59.44,112.57,37.32,2.98
mg,antsohihy,-14.866666699999998,47.9833333,172,100,MG,1558378786,74,-14.88,47.99,80.7,5.35
pg,kavieng,-2.5666667000000003,150.8,173,100,PG,1558378787,75,-2.57,150.8,82.86,3.76
co,la esperanza,8.210434,-72.46399,174,75,HN,1558378787,62,14.31,-88.18,87.8,4.7
gt,la esperanza,14.866667000000001,-91.56666700000001,174,75,HN,1558378787,62,14.31,-88.18,87.8,4.7
hn,la esperanza,15.633333300000002,-85.7666667,174,75,HN,1558378787,62,14.31,-88.18,87.8,4.7
hn,la esperanza,15.05,-89.1,174,75,HN,1558378787,62,14.31,-88.18,87.8,4.7
hn,la esperanza,15.416666699999999,-88.1833333,174,75,HN,1558378787,62,14.31,-88.18,87.8,4.7
hn,la esperanza,14.3,-88.1833333,174,75,HN,1558378787,62,14.31,-88.18,87.8,4.7
pa,la esperanza,8.4,-82.8,174,75,HN,1558378787,62,14.31,-88.18,87.8,4.7
ca,clyde river,70.45,-68.56666700000001,175,75,CA,1558378787,86,70.47,-68.59,28.4,12.75
ma,nador,35.174040999999995,-2.92866,176,0,MA,1558378499,40,35.17,-2.93,75.2,6.93
is,keflavik,64.016667,-22.566667000000002,177,75,IS,1558378788,100,64.0,-22.56,51.01,9.17
td,faya,17.9166667,19.1166667,178,20,SA,1558378788,76,18.39,42.45,59.0,5.82
ru,chokurdakh,70.633333,147.916667,179,0,RU,1558378788,89,70.62,147.9,7.08,5.99
mq,le marin,14.4666667,-60.8666667,180,75,MQ,1558378788,62,14.47,-60.87,87.8,19.46
gl,tasiilaq,65.6,-37.6333333,181,75,GL,1558378788,74,65.61,-37.64,35.6,12.75
ru,udachnyy,66.416667,112.4,182,90,RU,1558378789,48,66.42,112.4,39.2,11.18
lr,monrovia,6.3105556,-10.804722199999999,183,40,LR,1558378789,79,6.33,-10.8,84.2,9.17
us,monrovia,34.148055600000006,-117.99805559999999,183,40,LR,1558378789,79,6.33,-10.8,84.2,9.17
au,burnie,-41.05584,145.903748,184,76,AU,1558378789,87,-41.05,145.91,53.01,5.99
nz,kaitangata,-46.275,169.85,185,16,NZ,1558378789,67,-46.28,169.85,52.0,10.0
jp,yamada,39.466667,141.95,186,75,JP,1558378789,93,36.58,137.08,63.0,2.24
au,mackay,-21.15345,149.16554299999999,187,20,CA,1558378789,28,53.65,-115.58,59.0,20.8
pt,lagoa,37.135349,-8.453188,188,20,PT,1558378790,46,37.14,-8.45,73.4,18.34
pt,lagoa,39.05,-27.983333000000002,188,20,PT,1558378790,46,37.14,-8.45,73.4,18.34
nz,bluff,-46.6,168.333333,189,1,AU,1558378790,89,-23.58,149.07,61.08,11.83
ca,saint-georges,46.116667,-70.666667,190,94,CA,1558378595,76,46.12,-70.67,71.01,8.99
gf,saint-georges,3.9,-51.8,190,94,CA,1558378595,76,46.12,-70.67,71.01,8.99
ru,naryan-mar,67.641793,53.043071,191,0,RU,1558378791,90,67.67,53.09,27.24,8.19
au,port hedland,-20.312148999999998,118.61058799999999,192,0,AU,1558378791,51,-20.31,118.58,62.6,6.93
mv,hithadhoo,-0.6,73.08333329999999,193,100,MV,1558378650,75,-0.6,73.08,84.12,11.3
mv,hithadhoo,1.7833332999999998,73.3833333,193,100,MV,1558378650,75,-0.6,73.08,84.12,11.3
ru,beringovskiy,63.05,179.316667,194,58,RU,1558378791,90,63.05,179.32,27.42,6.2
ag,codrington,17.6333333,-61.8333333,195,90,AU,1558378791,93,-28.95,153.24,60.8,5.82
gl,ilulissat,69.2166667,-51.1,196,90,GL,1558378791,86,69.22,-51.1,33.8,4.7
cl,coquimbo,-29.953333,-71.343611,197,75,CL,1558378792,59,-29.95,-71.34,64.4,5.82
mu,grand baie,-20.013611100000002,57.5738889,198,75,MU,1558378661,74,-20.02,57.58,78.8,11.41
ug,kaabong,3.4836111000000005,34.1491667,199,100,UG,1558378792,92,3.51,34.14,64.86,2.91
mx,lazaro cardenas,17.958333,-102.2,200,75,MX,1558378792,14,28.39,-105.62,88.0,21.92
ao,luanda,-8.836803999999999,13.233173999999998,201,20,AO,1558378792,78,-8.83,13.24,78.8,6.93
ke,luanda,0.3077778,34.0586111,201,20,AO,1558378792,78,-8.83,13.24,78.8,6.93
ar,rio gallegos,-51.622613,-69.218127,202,0,AR,1558378754,40,-51.62,-69.22,53.6,34.45
pg,namatanai,-3.6666667,152.43333330000002,203,100,PG,1558378793,88,-3.66,152.44,77.46,5.95
ru,severo-kurilsk,50.678889,156.125,204,99,RU,1558378793,97,50.68,156.12,39.66,15.1
cn,hutang,31.533333000000002,119.483333,205,4,CN,1558378793,71,29.22,119.85,59.1,3.31
jp,namioka,40.707221999999994,140.589444,206,75,JP,1558378793,52,40.71,140.59,68.0,11.41
ru,mnogovershinnyy,53.935278000000004,139.92416699999998,207,100,RU,1558378793,96,53.94,139.92,39.12,8.05
ni,san rafael del sur,11.85,-86.45,208,40,NI,1558378793,49,11.85,-86.44,91.4,13.87
gl,paamiut,62.0,-49.75,209,7,GL,1558378794,91,61.99,-49.67,35.7,16.31
pt,ribeira grande,38.516667,-28.7,210,40,PT,1558378794,88,38.52,-28.7,66.2,10.29
id,labuhan,-6.3784,105.83,211,18,ID,1558378794,86,-2.54,115.51,75.48,2.8
au,mount gambier,-37.831799,140.77919,212,90,AU,1558378628,100,-37.83,140.78,53.6,8.05
co,pesca,5.55,-73.05,213,96,CO,1558378794,68,5.56,-73.05,62.52,7.76
au,mount isa,-20.725229000000002,139.497269,214,0,AU,1558378794,56,-20.73,139.49,68.0,6.93
re,le port,-20.9166667,55.3,215,25,FR,1558378795,64,42.87,1.37,60.01,4.47
au,hobart,-42.883209,147.331665,216,40,AU,1558378795,66,-42.88,147.33,57.99,5.82
us,hobart,41.5322222,-87.255,216,40,AU,1558378795,66,-42.88,147.33,57.99,5.82
ie,dublin,53.3330556,-6.2488889,217,75,IE,1558378538,81,53.35,-6.26,57.99,5.82
us,dublin,37.7022222,-121.93472220000001,217,75,IE,1558378538,81,53.35,-6.26,57.99,5.82
us,dublin,32.5402778,-82.90388890000001,217,75,IE,1558378538,81,53.35,-6.26,57.99,5.82
us,dublin,40.099166700000005,-83.1141667,217,75,IE,1558378538,81,53.35,-6.26,57.99,5.82
om,salalah,17.0175,54.082777799999995,218,20,OM,1558378796,74,17.01,54.1,86.0,10.29
no,beisfjord,68.36805600000001,17.588889,219,0,NO,1558378796,51,68.38,17.6,60.8,11.41
ru,ust-tsilma,65.441037,52.149783,220,0,RU,1558378796,58,65.44,52.15,35.88,6.11
ph,marawi,7.998611,124.292778,221,12,PH,1558378796,93,8.0,124.29,77.0,5.01
sd,marawi,18.4833333,31.816666700000003,221,12,PH,1558378796,93,8.0,124.29,77.0,5.01
co,samana,5.412580999999999,-74.992189,222,75,EC,1558378796,94,0.12,-76.97,77.0,4.7
do,samana,19.216666699999998,-69.3166667,222,75,EC,1558378796,94,0.12,-76.97,77.0,4.7
in,samana,30.158333000000002,76.193056,222,75,EC,1558378796,94,0.12,-76.97,77.0,4.7
pl,koronowo,53.310480000000005,17.945527,223,20,PL,1558378736,60,53.31,17.94,71.01,3.36
ru,ekimchan,53.066667,132.966667,224,100,RU,1558378797,87,53.07,132.94,43.26,10.4
au,carnarvon,-24.88073,113.659401,225,58,ZA,1558378797,65,-30.97,22.13,50.1,14.94
za,carnarvon,-30.968265999999996,22.133026,225,58,ZA,1558378797,65,-30.97,22.13,50.1,14.94
ca,saint-denis,45.783333,-73.15,226,0,FR,1558378797,67,48.94,2.36,64.4,10.29
fr,saint-denis,48.934172,2.354805,226,0,FR,1558378797,67,48.94,2.36,64.4,10.29
re,saint-denis,-20.8666667,55.466666700000005,226,0,FR,1558378797,67,48.94,2.36,64.4,10.29
ir,tabas,33.595856,56.92436800000001,227,100,IR,1558378798,18,33.6,56.92,89.6,9.17
ar,san pedro,-33.679127,-59.666635,228,100,AR,1558378735,69,-33.68,-59.66,63.0,7.0
ar,san pedro,-24.231266,-64.866141,228,100,AR,1558378735,69,-33.68,-59.66,63.0,7.0
bo,san pedro,-18.283333300000002,-59.8166667,228,100,AR,1558378735,69,-33.68,-59.66,63.0,7.0
bz,san pedro,17.9166667,-87.95,228,100,AR,1558378735,69,-33.68,-59.66,63.0,7.0
co,san pedro,6.462212999999999,-75.556556,228,100,AR,1558378735,69,-33.68,-59.66,63.0,7.0
co,san pedro,9.395603,-75.064758,228,100,AR,1558378735,69,-33.68,-59.66,63.0,7.0
co,san pedro,3.9921849999999997,-76.239261,228,100,AR,1558378735,69,-33.68,-59.66,63.0,7.0
cr,san pedro,9.928293,-84.050735,228,100,AR,1558378735,69,-33.68,-59.66,63.0,7.0
mx,san pedro,25.433332999999998,-103.216667,228,100,AR,1558378735,69,-33.68,-59.66,63.0,7.0
ph,san pedro,10.8018,121.9499,228,100,AR,1558378735,69,-33.68,-59.66,63.0,7.0
ph,san pedro,14.053407,121.145358,228,100,AR,1558378735,69,-33.68,-59.66,63.0,7.0
ph,san pedro,7.341944,126.5175,228,100,AR,1558378735,69,-33.68,-59.66,63.0,7.0
ph,san pedro,17.2,121.88333300000001,228,100,AR,1558378735,69,-33.68,-59.66,63.0,7.0
ph,san pedro,14.3595,121.0473,228,100,AR,1558378735,69,-33.68,-59.66,63.0,7.0
ph,san pedro,10.960999999999999,124.8197,228,100,AR,1558378735,69,-33.68,-59.66,63.0,7.0
ph,san pedro,12.016667,124.0,228,100,AR,1558378735,69,-33.68,-59.66,63.0,7.0
ph,san pedro,12.460841,121.01041299999999,228,100,AR,1558378735,69,-33.68,-59.66,63.0,7.0
ph,san pedro,15.883332999999999,120.65,228,100,AR,1558378735,69,-33.68,-59.66,63.0,7.0
cd,aketi,2.733333,23.766667,229,100,CD,1558378804,96,2.74,23.78,72.6,1.03
us,moses lake,47.1302778,-119.27694440000002,230,1,US,1558378804,22,47.13,-119.28,69.8,13.87
mz,mocuba,-16.840277800000003,38.256944399999995,231,1,MZ,1558378804,90,-16.84,36.99,65.76,2.42
au,hamilton,-37.74334,142.02891499999998,232,90,CA,1558378635,67,43.26,-79.87,59.0,14.99
bm,hamilton,32.2941667,-64.7838889,232,90,CA,1558378635,67,43.26,-79.87,59.0,14.99
ca,hamilton,43.25,-79.833333,232,90,CA,1558378635,67,43.26,-79.87,59.0,14.99
nz,hamilton,-37.783333,175.283333,232,90,CA,1558378635,67,43.26,-79.87,59.0,14.99
us,hamilton,46.2469444,-114.15944440000001,232,90,CA,1558378635,67,43.26,-79.87,59.0,14.99
us,hamilton,39.39944439999999,-84.56138890000001,232,90,CA,1558378635,67,43.26,-79.87,59.0,14.99
ni,san juan del sur,11.25,-85.8666667,233,40,NI,1558378808,74,11.25,-85.87,84.2,10.2
id,katobu,-4.9186,122.5218,234,17,ID,1558378814,93,-4.94,122.53,75.66,1.54
id,banjar,-7.1955,107.4313,235,86,ID,1558378616,98,-7.37,108.54,73.86,1.14
in,banjar,31.633333,77.35,235,86,ID,1558378616,98,-7.37,108.54,73.86,1.14
ru,provideniya,64.383333,-173.3,236,5,RU,1558378816,72,64.42,-173.23,33.72,5.23
br,andradas,-22.066667000000002,-46.566666999999995,237,20,BR,1558378535,56,-22.07,-46.57,79.0,6.93
cn,bose,23.899722,106.61333300000001,238,75,IT,1558378816,72,45.46,8.01,64.4,2.24
cn,manzhouli,49.6,117.433333,239,35,CN,1558378819,45,49.6,117.43,45.24,13.67
us,lockhart,28.6191667,-81.44277779999999,240,75,AU,1558378821,76,-35.22,146.72,55.4,3.36
us,lockhart,29.884722200000002,-97.66972220000001,240,75,AU,1558378821,76,-35.22,146.72,55.4,3.36
ru,anadyr,64.75,177.48333300000002,241,75,RU,1558378821,74,64.73,177.51,30.2,6.71
so,bandarbeyla,9.483333300000002,50.8166667,242,67,SO,1558378822,74,9.49,50.81,82.68,13.38
ua,buchach,49.062539,25.387981,243,75,UA,1558378822,100,49.06,25.39,70.0,2.24
pk,pasni,25.263113,63.471033,244,0,PK,1558378823,52,25.26,63.48,86.82,9.17
ca,tuktoyaktuk,69.45,-133.066667,245,40,CA,1558378823,75,69.44,-133.03,41.0,19.46
in,okha,22.469444,69.060556,246,100,RU,1558378823,96,53.59,142.95,40.38,13.62
ru,okha,53.573889,142.947778,246,100,RU,1558378823,96,53.59,142.95,40.38,13.62
co,puerto escondido,9.018105,-76.26413000000001,247,5,MX,1558378824,66,15.86,-97.07,86.0,9.17
mx,puerto escondido,15.85,-97.06666700000001,247,5,MX,1558378824,66,15.86,-97.07,86.0,9.17
pa,puerto escondido,9.1933333,-80.0883333,247,5,MX,1558378824,66,15.86,-97.07,86.0,9.17
cl,ancud,-41.869721999999996,-73.820278,248,0,CL,1558378825,70,-41.87,-73.83,48.2,9.17
cl,lebu,-37.616667,-73.65,249,75,ET,1558378826,68,8.96,38.73,64.4,2.95
au,port lincoln,-34.72625,135.87442,250,100,AU,1558378826,76,-34.72,135.86,63.6,15.48
ru,leningradskiy,69.383333,178.416667,251,0,RU,1558378827,80,69.38,178.42,22.2,6.38
tj,leningradskiy,38.1077778,70.0308333,251,0,RU,1558378827,80,69.38,178.42,22.2,6.38
fi,kajaani,64.233333,27.683333,252,0,FI,1558378827,62,64.22,27.73,59.0,6.93
au,murray bridge,-35.119862,139.273453,253,100,AU,1558378827,89,-35.12,139.28,55.99,1.01
uy,rocha,-34.4833333,-54.3333333,254,97,UY,1558378828,96,-34.48,-54.34,61.08,11.3
ph,tagusao,9.192377,117.814097,255,92,PH,1558378828,71,9.19,117.81,84.12,2.57
bo,cobija,-11.0333333,-68.7333333,256,75,BR,1558378828,55,-11.02,-68.77,89.6,3.36
ga,port-gentil,-0.7166667,8.7833333,257,20,GA,1558378833,88,-0.72,8.78,80.6,11.41
nz,te anau,-45.416667,167.716667,258,61,NZ,1558378834,93,-45.41,167.72,39.3,4.12
cn,hami,42.8,93.45,259,0,CN,1558378834,11,42.84,93.51,69.72,6.2
us,pahrump,36.2083333,-115.98305559999999,260,75,US,1558378834,41,36.21,-115.98,68.0,11.5
ca,fort frances,48.616667,-93.416667,261,1,CA,1558378834,38,48.61,-93.4,63.0,9.17
za,umtata,-31.588926,28.784431,262,0,ZA,1558378835,51,-31.59,28.78,60.8,17.22
ru,markova,57.320556,107.08805600000001,263,0,RU,1558378835,49,52.21,104.21,46.4,6.71
ua,markova,48.675764,24.413823999999998,263,0,RU,1558378835,49,52.21,104.21,46.4,6.71
re,saint-leu,-21.15,55.283333299999995,264,68,RE,1558378835,88,-21.15,55.28,78.01,3.36
ly,jalu,29.0333333,21.55,265,73,LY,1558378836,5,29.03,21.55,100.14,11.07
au,alice springs,-23.697479,133.883621,266,1,AU,1558378836,93,-23.7,133.88,57.2,3.36
ve,zaraza,9.35,-65.3166667,267,97,VE,1558378836,22,9.35,-65.33,101.04,8.61
ie,dingle,52.1408333,-10.2688889,268,4,PH,1558378836,80,11.0,122.67,79.08,2.73
ph,dingle,10.9995,122.6711,268,4,PH,1558378836,80,11.0,122.67,79.08,2.73
ky,bodden town,19.283333300000002,-81.25,269,75,KY,1558378836,88,19.28,-81.25,84.99,4.7
au,griffith,-34.288528,146.050934,270,13,AU,1558378837,82,-34.29,146.06,55.4,5.82
us,griffith,41.5283333,-87.42361109999999,270,13,AU,1558378837,82,-34.29,146.06,55.4,5.82
cl,coihaique,-45.566666999999995,-72.06666700000001,271,0,CL,1558378837,59,-45.58,-72.07,46.4,4.7
br,sao felix do xingu,-6.633333,-51.983333,272,100,BR,1558378837,92,-6.64,-51.99,80.34,3.74
ar,santa rosa,-36.616667,-64.283333,273,100,AR,1558378839,78,-36.62,-64.29,49.38,13.94
bo,santa rosa,-14.166666699999999,-66.8833333,273,100,AR,1558378839,78,-36.62,-64.29,49.38,13.94
bo,santa rosa,-16.783333300000002,-61.8,273,100,AR,1558378839,78,-36.62,-64.29,49.38,13.94
br,santa rosa,-27.866667,-54.483332999999995,273,100,AR,1558378839,78,-36.62,-64.29,49.38,13.94
co,santa rosa,1.702666,-76.573891,273,100,AR,1558378839,78,-36.62,-64.29,49.38,13.94
co,santa rosa,10.444722,-75.369722,273,100,AR,1558378839,78,-36.62,-64.29,49.38,13.94
ec,santa rosa,-3.45,-79.9666667,273,100,AR,1558378839,78,-36.62,-64.29,49.38,13.94
pe,santa rosa,-6.7666667,-79.83333329999999,273,100,AR,1558378839,78,-36.62,-64.29,49.38,13.94
ph,santa rosa,14.426116,120.87931100000002,273,100,AR,1558378839,78,-36.62,-64.29,49.38,13.94
ph,santa rosa,15.4238,120.9378,273,100,AR,1558378839,78,-36.62,-64.29,49.38,13.94
ph,santa rosa,13.5402,122.3912,273,100,AR,1558378839,78,-36.62,-64.29,49.38,13.94
ph,santa rosa,10.57226,123.101202,273,100,AR,1558378839,78,-36.62,-64.29,49.38,13.94
ph,santa rosa,14.305579000000002,121.110739,273,100,AR,1558378839,78,-36.62,-64.29,49.38,13.94
py,santa rosa,-26.866667,-56.85,273,100,AR,1558378839,78,-36.62,-64.29,49.38,13.94
us,santa rosa,38.4405556,-122.71333329999999,273,100,AR,1558378839,78,-36.62,-64.29,49.38,13.94
ca,goderich,43.733333,-81.7,274,96,CA,1558378839,87,43.74,-81.71,52.0,13.0
sl,goderich,8.4319444,-13.289722199999998,274,96,CA,1558378839,87,43.74,-81.71,52.0,13.0
br,vila velha,-20.333333,-40.283333,275,75,BR,1558378839,83,-3.71,-38.6,80.6,9.17
pt,rabo de peixe,37.8,-25.583333,276,40,PT,1558378839,88,37.8,-25.58,66.2,12.75
ao,soyo,-6.1349029999999996,12.368935,277,20,AO,1558378792,88,-6.13,12.37,80.6,9.17
gf,cayenne,4.9333333,-52.3333333,278,40,GF,1558378571,70,4.94,-52.33,86.0,14.99
za,saldanha,-33.01167,17.944202,279,86,PT,1558378840,46,41.42,-6.55,63.06,9.75
br,santa ines,-13.283332999999999,-39.8,280,75,EC,1558378840,72,-0.82,-78.63,64.4,2.93
br,santa ines,-3.65,-45.366667,280,75,EC,1558378840,72,-0.82,-78.63,64.4,2.93
ph,santa ines,15.564,120.4656,280,75,EC,1558378840,72,-0.82,-78.63,64.4,2.93
jp,hasaki,35.733333,140.833333,281,75,JP,1558378841,93,35.73,140.83,66.2,16.11
ca,slave lake,55.283333,-114.78333300000001,282,1,CA,1558378673,25,55.28,-114.77,62.6,17.22
gb,christchurch,50.733333,-1.7666669999999998,283,1,NZ,1558378744,100,-43.53,172.64,51.01,3.36
nz,christchurch,-43.533333,172.633333,283,1,NZ,1558378744,100,-43.53,172.64,51.01,3.36
tz,kibakwe,-6.7166667,36.3666667,284,46,TZ,1558378841,74,-6.71,36.37,69.54,5.44
na,luderitz,-26.648055600000003,15.159444400000002,285,39,,1558378806,72,-26.65,15.16,62.6,18.34
co,san andres,6.903333,-75.6825,286,58,PH,1558378815,82,13.32,122.68,81.78,2.89
co,san andres,12.584722,-81.700556,286,58,PH,1558378815,82,13.32,122.68,81.78,2.89
co,san andres,6.811478,-72.849292,286,58,PH,1558378815,82,13.32,122.68,81.78,2.89
gt,san andres,16.966667,-89.916667,286,58,PH,1558378815,82,13.32,122.68,81.78,2.89
pa,san andres,8.6,-82.7333333,286,58,PH,1558378815,82,13.32,122.68,81.78,2.89
ph,san andres,13.2614,123.7795,286,58,PH,1558378815,82,13.32,122.68,81.78,2.89
ph,san andres,14.05,121.21666699999999,286,58,PH,1558378815,82,13.32,122.68,81.78,2.89
ph,san andres,15.7222,120.77799999999999,286,58,PH,1558378815,82,13.32,122.68,81.78,2.89
ph,san andres,14.003526999999998,121.151371,286,58,PH,1558378815,82,13.32,122.68,81.78,2.89
ph,san andres,13.3227,122.6779,286,58,PH,1558378815,82,13.32,122.68,81.78,2.89
ca,pangnirtung,66.133333,-65.75,287,75,CA,1558378841,80,66.15,-65.72,35.6,18.34
mx,san quintin,30.483333000000002,-115.95,288,95,PH,1558378841,76,17.54,120.52,78.72,3.62
ph,union,11.7612,121.8963,289,90,US,1558378842,100,47.36,-123.1,57.2,8.05
ph,union,10.0475,124.5151,289,90,US,1558378842,100,47.36,-123.1,57.2,8.05
ph,union,10.6695,124.3252,289,90,US,1558378842,100,47.36,-123.1,57.2,8.05
ph,union,9.756667,126.11027800000001,289,90,US,1558378842,100,47.36,-123.1,57.2,8.05
py,union,-24.8,-56.55,289,90,US,1558378842,100,47.36,-123.1,57.2,8.05
us,union,40.6975,-74.26361109999999,289,90,US,1558378842,100,47.36,-123.1,57.2,8.05
us,union,34.7152778,-81.62388890000001,289,90,US,1558378842,100,47.36,-123.1,57.2,8.05
ru,dudinka,69.405833,86.177778,290,75,RU,1558378842,92,69.41,86.18,15.8,29.08
co,florida,3.3222970000000003,-76.234804,291,40,CU,1558378581,52,21.53,-78.23,87.8,5.82
cu,florida,21.5247222,-78.2258333,291,40,CU,1558378581,52,21.53,-78.23,87.8,5.82
hn,florida,15.0333333,-88.83333329999999,291,40,CU,1558378581,52,21.53,-78.23,87.8,5.82
ph,florida,7.6775,125.67361100000001,291,40,CU,1558378581,52,21.53,-78.23,87.8,5.82
us,florida,18.3652778,-66.5675,291,40,CU,1558378581,52,21.53,-78.23,87.8,5.82
uy,florida,-34.095555600000004,-56.2141667,291,40,CU,1558378581,52,21.53,-78.23,87.8,5.82
in,madikeri,12.416667,75.733333,292,75,IN,1558378843,89,12.42,75.74,84.2,2.24
au,esperance,-33.86013,121.88259099999999,293,40,TT,1558378843,46,10.24,-61.45,91.4,18.34
mu,esperance,-20.225,57.58722220000001,293,40,TT,1558378843,46,10.24,-61.45,91.4,18.34
mu,esperance,-20.069722199999998,57.6419444,293,40,TT,1558378843,46,10.24,-61.45,91.4,18.34
us,esperance,47.7891667,-122.35416670000001,293,40,TT,1558378843,46,10.24,-61.45,91.4,18.34
gh,takoradi,4.883333299999999,-1.75,294,100,GH,1558378843,85,4.89,-1.75,78.9,3.56
ru,lokomotivnyy,53.0118,60.5684,295,38,RU,1558378843,61,53.01,60.57,41.1,9.42
ir,khash,28.221071999999996,61.215818999999996,296,32,IR,1558378844,43,28.22,61.21,68.28,12.5
mm,mogok,22.9166667,96.5,297,0,MM,1558378844,51,22.92,96.51,72.24,2.77
fi,mikkeli,61.683333,27.25,298,0,FI,1558378844,59,61.69,27.27,62.6,6.93
cn,jiuquan,39.738170000000004,98.499328,299,0,CN,1558378844,14,39.73,98.49,59.64,5.5
mg,betafo,-19.8333333,46.85,300,9,MG,1558378845,92,-19.84,46.86,58.2,3.47
pg,aitape,-3.1333333,142.35,301,100,PG,1558378845,87,-3.15,142.36,77.64,3.96
nu,alofi,-19.0166667,-169.91666669999998,302,75,NU,1558378845,94,-19.06,-169.92,75.2,6.93
au,yulara,-25.245291,130.980545,303,20,AU,1558378845,77,-25.24,130.99,62.6,8.16
ru,kvarkeno,52.083333,59.725,304,77,RU,1558378845,56,52.08,59.73,44.88,8.21
br,salinopolis,-0.616667,-47.333333,305,90,BR,1558378846,82,-0.61,-47.36,82.14,12.57
mx,chunhuhub,19.55,-88.68333299999999,306,5,MX,1558378846,35,19.59,-88.59,96.72,7.02
nz,dunedin,-45.866667,170.5,307,1,NZ,1558378846,81,-45.87,170.5,46.99,4.0
us,dunedin,28.019444399999998,-82.7719444,307,1,NZ,1558378846,81,-45.87,170.5,46.99,4.0
ml,nioro,15.233333300000002,-9.583333300000001,308,76,GM,1558378846,15,13.79,-15.05,101.4,6.02
sn,nioro,13.75,-15.8,308,76,GM,1558378846,15,13.79,-15.05,101.4,6.02
gl,upernavik,72.7833333,-56.1666667,309,0,GL,1558378846,85,72.79,-56.15,29.22,11.59
pw,airai,7.3575,134.55777780000003,310,35,TL,1558378846,73,-8.93,125.41,75.12,7.2
tm,balkanabat,39.5119444,54.365,311,99,TM,1558378846,41,39.51,54.36,79.8,6.69
ru,syumsi,57.11108,51.614938,312,90,RU,1558378847,66,57.11,51.61,43.08,6.91
ru,loukhi,66.07615799999999,33.047453999999995,313,100,RU,1558378847,75,66.08,33.04,38.04,9.91
mn,baruun-urt,46.7,113.28333329999998,314,0,MN,1558378847,48,46.68,113.28,44.88,5.32
co,miraflores,1.336667,-71.951111,315,99,CO,1558378848,60,5.2,-73.14,68.64,5.44
co,miraflores,5.196077,-73.14504000000001,315,99,CO,1558378848,60,5.2,-73.14,68.64,5.44
gm,gunjur,13.1816667,-16.7583333,316,0,GM,1558378848,61,13.18,-16.76,80.6,9.17
jp,wajima,37.4,136.9,317,100,JP,1558378849,94,37.4,136.9,63.78,13.53
sb,buala,-8.1333333,159.58333330000002,318,87,SB,1558378849,79,-8.15,159.59,81.96,10.78
br,acari,-6.516667,-36.633333,319,100,BR,1558378849,48,-6.44,-36.64,89.34,11.99
pe,acari,-15.4311111,-74.61583329999999,319,100,BR,1558378849,48,-6.44,-36.64,89.34,11.99
bf,banfora,10.633333300000002,-4.7666667,320,77,BF,1558378849,56,10.64,-4.75,91.14,4.7
ke,mandera,3.9261111000000004,41.8461111,321,69,ET,1558378731,47,3.94,41.86,87.18,8.03
cd,tshikapa,-6.4166669999999995,20.8,322,99,CD,1558378849,58,-6.42,20.79,79.62,2.15
us,juneau,58.301944400000004,-134.4197222,323,75,US,1558378850,71,58.3,-134.42,57.2,11.41
us,sidney,47.716666700000005,-104.1558333,324,1,US,1558378850,26,47.72,-104.16,61.0,14.99
us,sidney,40.2841667,-84.1555556,324,1,US,1558378850,26,47.72,-104.16,61.0,14.99
er,edd,13.929722199999999,41.6925,325,50,ER,1558378850,49,13.93,41.69,93.3,9.69
bs,cockburn town,24.033333300000002,-74.5166667,326,1,TC,1558378560,79,21.46,-71.14,80.52,12.5
tc,cockburn town,21.466666699999998,-71.1333333,326,1,TC,1558378560,79,21.46,-71.14,80.52,12.5
jp,kizukuri,40.806111,140.386111,327,100,JP,1558378851,59,40.81,140.39,68.0,1.01
vn,vung tau,10.35,107.066667,328,77,VN,1558378714,77,10.35,107.08,85.2,10.58
es,mahon,39.883333,4.25,329,75,IE,1558378851,71,51.89,-8.4,57.0,9.17
td,biltine,14.5333333,20.9166667,330,93,TD,1558378853,13,14.53,20.93,101.76,6.87
jp,ishigaki,24.344782000000002,124.15716699999999,331,69,JP,1558378853,73,24.34,124.16,76.2,24.34
jm,morant bay,17.8833333,-76.41666670000001,332,20,JM,1558378853,62,17.88,-76.41,86.0,23.04
ru,raduzhnyy,59.483332999999995,49.65,333,100,RU,1558378853,93,62.1,77.47,39.3,9.86
mx,san patricio,19.216667,-104.7,334,94,PY,1558378853,82,-26.98,-56.83,76.74,7.49
ph,san patricio,15.0953,120.7295,334,94,PY,1558378853,82,-26.98,-56.83,76.74,7.49
py,san patricio,-26.966666999999998,-56.816667,334,94,PY,1558378853,82,-26.98,-56.83,76.74,7.49
cn,hulan ergi,47.204167,123.63333300000001,335,100,CN,1558378853,85,47.2,123.63,48.48,15.26
mm,thayetmyo,19.3166667,95.1833333,336,81,MM,1558378854,61,19.32,95.18,88.26,7.07
mx,acapulco,16.85,-99.916667,337,5,MX,1558378854,70,16.86,-99.88,84.2,11.41
za,port shepstone,-30.741369,30.454991999999997,338,2,ZA,1558378854,47,-30.74,30.45,69.54,5.32
pf,tautira,-17.7333333,-149.15,339,20,PF,1558378854,70,-17.73,-149.15,84.2,10.29
ec,la libertad,-2.2333333,-80.9,340,0,PE,1558378855,36,-16.38,-71.56,64.4,8.05
gt,la libertad,15.5,-91.833333,340,0,PE,1558378855,36,-16.38,-71.56,64.4,8.05
gt,la libertad,16.783333,-90.116667,340,0,PE,1558378855,36,-16.38,-71.56,64.4,8.05
hn,la libertad,14.45,-87.45,340,0,PE,1558378855,36,-16.38,-71.56,64.4,8.05
hn,la libertad,14.8,-88.58333329999999,340,0,PE,1558378855,36,-16.38,-71.56,64.4,8.05
mx,la libertad,14.591110999999998,-92.193611,340,0,PE,1558378855,36,-16.38,-71.56,64.4,8.05
ph,la libertad,10.0266,123.2335,340,0,PE,1558378855,36,-16.38,-71.56,64.4,8.05
ph,la libertad,7.480278,125.647222,340,0,PE,1558378855,36,-16.38,-71.56,64.4,8.05
sv,la libertad,13.4883333,-89.32222220000001,340,0,PE,1558378855,36,-16.38,-71.56,64.4,8.05
ca,raymond,49.466667,-112.66666699999999,341,40,US,1558378580,48,43.04,-71.18,84.99,12.75
us,raymond,43.90138889999999,-70.4708333,341,40,US,1558378580,48,43.04,-71.18,84.99,12.75
us,raymond,43.03611110000001,-71.18388890000001,341,40,US,1558378580,48,43.04,-71.18,84.99,12.75
vg,road town,18.4166667,-64.6166667,342,40,VG,1558378828,66,18.42,-64.62,86.0,9.17
ru,yar-sale,66.833333,70.833333,343,100,RU,1558378855,90,66.83,70.83,24.9,17.43
jp,iwanai,42.974444,140.50888899999998,344,100,JP,1558378855,87,42.97,140.51,56.04,11.32
cm,eseka,3.65,10.766666699999998,345,100,CM,1558378855,91,3.65,10.77,76.92,3.13
zw,chiredzi,-21.05,31.6666667,346,0,ZW,1558378856,42,-21.05,31.67,65.76,0.78
ru,tigil,57.8,158.666667,347,33,RU,1558378856,92,57.8,158.67,36.6,4.59
pf,avera,-22.45,-151.35,348,40,US,1558378856,40,33.19,-82.53,91.4,9.17
ru,muzhi,65.366667,64.666667,349,100,RU,1558378856,85,65.4,64.7,30.3,11.63
ru,komsomolskiy,69.166667,172.7,350,55,RU,1558378856,93,67.55,63.78,18.78,13.2
ru,komsomolskiy,43.978328999999995,46.69852,350,55,RU,1558378856,93,67.55,63.78,18.78,13.2
ru,komsomolskiy,45.330002,46.042798,350,55,RU,1558378856,93,67.55,63.78,18.78,13.2
ru,komsomolskiy,67.55,63.783333,350,55,RU,1558378856,93,67.55,63.78,18.78,13.2
ru,komsomolskiy,54.445218999999994,45.831358,350,55,RU,1558378856,93,67.55,63.78,18.78,13.2
ru,komsomolskiy,53.236404,50.842207,350,55,RU,1558378856,93,67.55,63.78,18.78,13.2
ru,komsomolskiy,53.904603,38.264542999999996,350,55,RU,1558378856,93,67.55,63.78,18.78,13.2
ru,komsomolskiy,57.4637,57.1269,350,55,RU,1558378856,93,67.55,63.78,18.78,13.2
ca,chapais,49.783333,-74.866667,351,90,CA,1558378856,93,49.78,-74.86,44.6,6.93
id,biak,-1.166007,136.09717,352,81,ID,1558378857,98,-0.91,122.88,65.4,3.27
mn,darhan,46.6166667,109.41666670000001,353,32,MN,1558378857,36,49.49,105.92,51.72,1.7
pg,daru,-9.083333300000001,143.2,354,78,SL,1558378857,89,7.99,-10.85,79.62,3.6
sl,daru,7.9919444,-10.8405556,354,78,SL,1558378857,89,7.99,-10.85,79.62,3.6
ru,onokhoy,51.931999999999995,108.0747,355,33,RU,1558378857,51,51.92,108.05,37.4,2.24
in,leh,34.166667,77.583333,356,33,IN,1558378857,51,34.16,77.58,25.8,3.58
id,banda aceh,5.5577,95.3222,357,100,ID,1558378858,76,5.56,95.32,84.12,11.95
au,alyangula,-13.85413,136.421295,358,100,AU,1558378858,100,-13.85,136.42,71.6,3.36
no,sorland,67.666667,12.7,359,0,NO,1558378858,71,67.67,12.69,53.6,5.82
ca,fort nelson,58.816667,-122.53333300000001,360,20,CA,1558378858,42,58.81,-122.69,68.0,5.82
id,boyolangu,-8.1181,111.8935,361,80,ID,1558378858,89,-8.09,111.9,74.76,4.65
cn,datong,40.093610999999996,113.291389,362,0,CN,1558378858,23,40.09,113.3,55.32,9.44
pt,vila franca do campo,37.716667,-25.433332999999998,363,40,PT,1558378859,88,37.72,-25.43,66.2,12.75
is,akureyri,65.666667,-18.1,364,90,IS,1558378859,66,65.68,-18.09,48.2,6.93
au,ulladulla,-35.359058000000005,150.472473,365,0,AU,1558378859,62,-35.36,150.48,60.01,11.41
ru,ust-barguzin,53.45,108.983333,366,27,RU,1558378859,60,53.41,109.03,36.06,2.42
za,pampierstad,-27.783234999999998,24.687685000000002,367,0,ZA,1558378859,23,-27.78,24.69,67.02,10.38
kz,zyryanovsk,49.738611,84.27194399999999,368,100,KZ,1558378588,88,49.74,84.27,48.84,1.81
au,cooma,-36.234691999999995,149.125977,369,11,AU,1558378860,71,-36.24,149.13,53.6,10.29
ro,sfantu gheorghe,44.883333,29.6,370,40,RO,1558378860,93,44.65,26.83,66.2,10.29
es,carballo,43.214403000000004,-8.691015,371,0,ES,1558378860,44,43.21,-8.69,63.0,5.82
jp,shimoda,34.666667,138.95,372,75,JP,1558378860,100,34.7,138.93,68.0,11.41
ru,novonukutskiy,53.7002,102.7117,373,96,RU,1558378861,40,53.7,102.71,56.04,4.81
pt,reguengos de monsaraz,38.425292999999996,-7.534945,374,20,PT,1558378861,49,38.42,-7.53,71.6,14.99
us,ocean city,39.2775,-74.575,375,40,US,1558378788,66,30.44,-86.61,93.0,13.87
cn,qinhuangdao,39.931667,119.588333,376,0,CN,1558378861,40,39.94,119.59,57.48,8.41
us,muskegon,43.2341667,-86.2483333,377,90,US,1558378605,70,43.23,-86.25,50.0,12.75
ru,kargasok,59.055556,80.857222,378,82,RU,1558378862,79,59.06,80.87,43.08,8.63
sb,auki,-8.766666699999998,160.7,379,83,NG,1558378862,26,12.18,6.51,98.88,6.08
tr,kayseri,38.732222,35.485278,380,40,TR,1558378862,48,38.73,35.48,66.2,3.36
cn,quanzhou,24.913889,118.58583300000001,381,35,CN,1558378863,88,24.9,118.59,69.8,6.71
jp,nago,26.588055999999998,127.97611100000002,382,40,IT,1558378863,93,45.88,10.89,60.01,3.36
ca,medicine hat,50.033333,-110.683333,383,75,CA,1558378863,32,50.04,-110.68,55.4,14.99
ru,cherskiy,68.75,161.3,384,100,RU,1558378863,96,68.75,161.3,24.0,7.16
br,santa maria,-29.683333,-53.8,385,99,BR,1558378868,85,-29.69,-53.81,71.16,5.95
co,santa maria,2.861389,-75.597778,385,99,BR,1558378868,85,-29.69,-53.81,71.16,5.95
co,santa maria,4.860483,-73.262338,385,99,BR,1558378868,85,-29.69,-53.81,71.16,5.95
cv,santa maria,16.6,-22.9,385,99,BR,1558378868,85,-29.69,-53.81,71.16,5.95
pa,santa maria,8.1166667,-80.66666670000001,385,99,BR,1558378868,85,-29.69,-53.81,71.16,5.95
pe,santa maria,-12.0,-76.9,385,99,BR,1558378868,85,-29.69,-53.81,71.16,5.95
ph,santa maria,8.033333,126.1625,385,99,BR,1558378868,85,-29.69,-53.81,71.16,5.95
ph,santa maria,18.149481,121.661252,385,99,BR,1558378868,85,-29.69,-53.81,71.16,5.95
ph,santa maria,6.553611,125.47083300000001,385,99,BR,1558378868,85,-29.69,-53.81,71.16,5.95
ph,santa maria,17.3665,120.4808,385,99,BR,1558378868,85,-29.69,-53.81,71.16,5.95
ph,santa maria,17.466389000000003,121.752222,385,99,BR,1558378868,85,-29.69,-53.81,71.16,5.95
ph,santa maria,14.4719,121.4286,385,99,BR,1558378868,85,-29.69,-53.81,71.16,5.95
ph,santa maria,12.578831,121.46041399999999,385,99,BR,1558378868,85,-29.69,-53.81,71.16,5.95
ph,santa maria,15.5232,120.7925,385,99,BR,1558378868,85,-29.69,-53.81,71.16,5.95
ph,santa maria,15.0801,120.7743,385,99,BR,1558378868,85,-29.69,-53.81,71.16,5.95
ph,santa maria,16.0284,120.46799999999999,385,99,BR,1558378868,85,-29.69,-53.81,71.16,5.95
ph,santa maria,7.991667,126.445,385,99,BR,1558378868,85,-29.69,-53.81,71.16,5.95
ph,santa maria,15.6379,120.4282,385,99,BR,1558378868,85,-29.69,-53.81,71.16,5.95
py,santa maria,-26.783333000000002,-56.933333,385,99,BR,1558378868,85,-29.69,-53.81,71.16,5.95
us,santa maria,34.953055600000006,-120.43472220000001,385,99,BR,1558378868,85,-29.69,-53.81,71.16,5.95
us,north bend,43.4066667,-124.22305559999998,386,40,US,1558378869,58,43.41,-124.22,63.0,12.75
pe,el alto,-4.2641667000000005,-81.2183333,387,75,BO,1558378857,19,-16.5,-68.19,57.2,14.99
au,geraldton,-28.778971000000002,114.614594,388,75,CA,1558378869,43,49.72,-86.95,55.4,11.41
ca,geraldton,49.716667,-86.966667,388,75,CA,1558378869,43,49.72,-86.95,55.4,11.41
mu,souillac,-20.5166667,57.5166667,389,1,FR,1558378869,59,45.6,-0.6,62.6,11.41
ca,la ronge,55.1,-105.3,390,40,CA,1558378869,33,55.1,-105.3,62.6,10.29
ao,namibe,-15.196110999999998,12.152222,391,0,AO,1558378870,74,-15.19,12.15,71.7,17.4
ie,westport,53.8,-9.516666699999998,392,20,IE,1558378845,66,53.8,-9.52,55.99,9.17
nz,westport,-41.75,171.566667,392,20,IE,1558378845,66,53.8,-9.52,55.99,9.17
us,westport,41.141388899999995,-73.3583333,392,20,IE,1558378845,66,53.8,-9.52,55.99,9.17
br,juiz de fora,-21.751667,-43.352778,393,20,BR,1558378833,44,-21.76,-43.35,75.2,8.05
gr,lagos,41.45,26.4666667,394,20,NG,1558378870,83,6.46,3.39,82.4,3.36
ng,lagos,6.453056,3.395833,394,20,NG,1558378870,83,6.46,3.39,82.4,3.36
pt,lagos,37.101782,-8.674242,394,20,NG,1558378870,83,6.46,3.39,82.4,3.36
us,half moon bay,37.4636111,-122.4275,395,90,US,1558378692,67,37.46,-122.43,62.01,9.17
au,nelson bay,-32.720428000000005,152.143982,396,2,AU,1558378870,93,-32.72,152.14,59.0,3.36
nz,tuatapere,-46.133333,167.683333,397,71,NZ,1558378871,88,-46.13,167.69,48.0,1.99
is,grindavik,63.833332999999996,-22.433332999999998,398,75,IS,1558378871,100,63.84,-22.43,51.01,9.17
cn,xining,36.616667,101.766667,399,76,CN,1558378797,47,36.62,101.77,44.7,1.21
pg,kieta,-6.2166667,155.6333333,400,97,PG,1558378871,72,-6.22,155.63,82.5,4.09
zm,kalabo,-14.9666667,22.6833333,401,47,ZM,1558378871,42,-15.0,22.67,69.9,4.72
mg,sambava,-14.266666699999998,50.1666667,402,7,MG,1558378871,99,-14.27,50.17,70.98,1.5
ca,wawa,48.0,-84.783333,403,90,NG,1558378872,38,9.9,4.41,94.92,4.88
ph,wawa,14.3019,121.4595,403,90,NG,1558378872,38,9.9,4.41,94.92,4.88
ph,wawa,13.4632,120.7441,403,90,NG,1558378872,38,9.9,4.41,94.92,4.88
ph,wawa,13.7401,121.0529,403,90,NG,1558378872,38,9.9,4.41,94.92,4.88
bh,manama,26.236111100000002,50.5830556,404,0,AE,1558378872,52,25.33,56.02,91.4,14.99
my,labuan,5.276667,115.24166699999999,405,75,BN,1558378808,88,5.28,115.24,80.6,5.21
ph,labuan,7.100747999999999,121.90238000000001,405,75,BN,1558378808,88,5.28,115.24,80.6,5.21
ie,wexford,52.334166700000004,-6.4575,406,75,US,1558378845,53,40.63,-80.06,75.99,19.46
ru,kyren,51.6828,102.1408,407,100,RU,1558378872,57,51.68,102.13,38.04,5.79
br,boquira,-12.816667,-42.766667,408,20,BR,1558378872,40,-12.82,-42.73,88.62,5.1
bb,bathsheba,13.2166667,-59.5166667,409,20,BB,1558378792,58,13.22,-59.52,86.0,18.34
ng,ogbomosho,8.133333,4.266667,410,97,NG,1558378873,61,8.13,4.25,84.66,8.72
sj,longyearbyen,78.2166667,15.633333300000002,411,75,NO,1558378873,74,78.22,15.63,28.4,5.82
in,diu,20.7,70.983333,412,0,IN,1558378873,75,20.71,70.98,83.04,12.82
ru,shebalino,51.291667,85.677222,413,100,RU,1558378873,68,51.29,85.68,53.52,7.29
pk,kalat,29.022515000000002,66.591604,414,47,PK,1558378846,44,29.03,66.58,66.84,4.0
ca,hare bay,48.85,-54.016667000000005,415,75,CA,1558378874,64,48.86,-53.99,46.0,17.22
iq,kirkuk,35.46805560000001,44.3922222,416,0,IQ,1558378874,16,35.47,44.4,86.82,7.36
ci,tabou,4.42295,-7.3528,417,84,CI,1558378874,82,4.42,-7.36,80.88,4.9
nz,ahipara,-35.166667,173.166667,418,99,NZ,1558378875,100,-35.17,173.16,55.0,9.51
au,byron bay,-28.64201,153.61193799999998,419,40,AU,1558378875,93,-28.65,153.62,63.0,4.7
vu,isangel,-19.55,169.2666667,420,13,VU,1558378875,76,-19.55,169.27,74.76,20.18
mq,saint-joseph,14.666666699999999,-61.033333299999995,421,75,FR,1558378875,93,43.56,6.97,64.0,3.36
re,saint-joseph,-21.3666667,55.6166667,421,75,FR,1558378875,93,43.56,6.97,64.0,3.36
ru,susuman,62.783333,148.166667,422,0,RU,1558378875,75,62.78,148.15,22.38,3.15
de,plattling,48.783333,12.866667,423,100,DE,1558378876,86,48.78,12.88,55.99,3.71
br,arenapolis,-14.433333,-56.816667,424,27,BR,1558378876,34,-14.45,-56.85,89.52,3.94
cl,tocopilla,-22.09198,-70.19792,425,79,CL,1558378876,94,-22.09,-70.2,61.8,17.07
us,arroyo,17.9677778,-66.0616667,426,75,US,1558378876,49,41.39,-78.88,75.0,21.92
au,hastings,-38.3,145.183333,427,0,NZ,1558378877,93,-39.64,176.84,42.18,2.64
ca,hastings,44.3,-77.95,427,0,NZ,1558378877,93,-39.64,176.84,42.18,2.64
gb,hastings,50.85,0.6,427,0,NZ,1558378877,93,-39.64,176.84,42.18,2.64
nz,hastings,-39.65,176.833333,427,0,NZ,1558378877,93,-39.64,176.84,42.18,2.64
sl,hastings,8.379722200000002,-13.1386111,427,0,NZ,1558378877,93,-39.64,176.84,42.18,2.64
us,hastings,44.743333299999996,-92.8522222,427,0,NZ,1558378877,93,-39.64,176.84,42.18,2.64
us,hastings,40.586111100000004,-98.3880556,427,0,NZ,1558378877,93,-39.64,176.84,42.18,2.64
ru,okhotsk,59.38333299999999,143.3,428,87,RU,1558378877,77,59.36,143.24,41.46,6.53
gl,maniitsoq,65.41666670000001,-52.9,429,1,GL,1558378877,76,65.42,-52.9,40.02,8.08
id,meulaboh,4.1363,96.1285,430,100,ID,1558378877,81,4.14,96.13,81.6,5.88
co,cartagena del chaira,1.334884,-74.842886,431,98,CO,1558378878,89,1.33,-74.84,79.62,3.22
br,macau,-5.116667,-36.633333,432,70,BR,1558378878,65,-5.11,-36.64,86.1,13.85
sk,svodin,47.9166667,18.5,433,0,SK,1558378878,72,47.91,18.5,63.0,6.93
ar,victoria,-32.619888,-60.153907,434,75,BN,1558378812,88,5.28,115.24,80.6,5.21
ca,victoria,48.433333000000005,-123.35,434,75,BN,1558378812,88,5.28,115.24,80.6,5.21
cl,victoria,-38.216667,-72.333333,434,75,BN,1558378812,88,5.28,115.24,80.6,5.21
co,victoria,5.316481,-74.911006,434,75,BN,1558378812,88,5.28,115.24,80.6,5.21
gd,victoria,12.183333300000001,-61.7,434,75,BN,1558378812,88,5.28,115.24,80.6,5.21
hn,victoria,15.483333300000002,-87.8166667,434,75,BN,1558378812,88,5.28,115.24,80.6,5.21
mx,victoria,21.210832999999997,-100.21194399999999,434,75,BN,1558378812,88,5.28,115.24,80.6,5.21
ph,victoria,14.2277,121.3292,434,75,BN,1558378812,88,5.28,115.24,80.6,5.21
ph,victoria,13.177222,121.278056,434,75,BN,1558378812,88,5.28,115.24,80.6,5.21
ph,victoria,12.447222,124.31111100000001,434,75,BN,1558378812,88,5.28,115.24,80.6,5.21
ro,victoria,44.816666999999995,27.616667,434,75,BN,1558378812,88,5.28,115.24,80.6,5.21
ro,victoria,47.283333,27.583333000000003,434,75,BN,1558378812,88,5.28,115.24,80.6,5.21
ro,victoria,45.733333,24.683332999999998,434,75,BN,1558378812,88,5.28,115.24,80.6,5.21
sc,victoria,-4.616666700000001,55.45,434,75,BN,1558378812,88,5.28,115.24,80.6,5.21
sv,victoria,13.95,-88.6333333,434,75,BN,1558378812,88,5.28,115.24,80.6,5.21
us,victoria,28.805,-97.0033333,434,75,BN,1558378812,88,5.28,115.24,80.6,5.21
vn,dong xoai,11.533333,106.91666699999999,435,100,VN,1558378870,71,11.53,106.92,83.76,5.44
kz,zaysan,47.466667,84.866667,436,43,KZ,1558378879,47,47.47,84.87,59.46,10.83
ca,sioux lookout,50.1,-91.916667,437,40,CA,1558378879,44,50.1,-91.92,59.0,6.93
nz,waipawa,-41.412222,175.515278,438,0,NZ,1558378879,93,-39.94,176.59,33.01,2.64
cv,vila do maio,15.133333300000002,-23.216666699999998,439,20,CV,1558378879,54,15.13,-23.22,80.6,13.87
gb,brae,60.38333299999999,-1.35,440,99,GB,1558378879,87,60.4,-1.35,51.8,4.7
ru,russkiy aktash,55.0384,52.1214,441,20,RU,1558378880,80,55.04,52.12,41.0,11.18
za,kokstad,-30.547231,29.424120000000002,442,51,ZA,1558378831,33,-30.55,29.42,57.12,3.65
ao,lucapa,-8.419151,20.744654999999998,443,65,AO,1558378880,48,-8.42,20.74,78.36,2.73
ir,birjand,32.866277000000004,59.221139,444,0,IR,1558378880,26,32.86,59.22,71.6,9.17
au,ingham,-18.645519,146.162476,445,24,AU,1558378880,97,-18.65,146.16,64.32,3.29
na,henties bay,-22.1166667,14.2833333,446,0,,1558378880,91,-22.12,14.28,59.0,5.99
ru,tilichiki,60.466667,166.1,447,99,RU,1558378881,87,60.47,166.1,33.9,4.41
kw,doha,29.367778,47.81,448,15,QA,1558378609,78,25.29,51.53,84.2,2.24
qa,doha,25.286667,51.533333,448,15,QA,1558378609,78,25.29,51.53,84.2,2.24
us,makakilo city,21.346944399999998,-158.08583330000002,449,75,US,1558378845,69,21.35,-158.09,82.99,11.41
pg,lorengau,-2.0166667,147.2666667,450,100,PG,1558378869,89,-2.02,147.27,77.46,1.12
jp,anan,33.916667,134.65,451,90,JP,1558378881,93,33.91,134.64,66.2,5.82
ru,synya,65.371849,58.038736,452,29,RU,1558378882,68,65.37,58.04,32.28,8.55
mm,thanatpin,17.3,96.58333329999999,453,75,MM,1558378882,83,17.29,96.58,82.4,4.7
ve,altagracia de orituco,9.8622222,-66.3805556,454,96,VE,1558378882,33,9.86,-66.38,89.52,5.26
cn,anqing,30.509166999999998,117.050556,455,55,CN,1558378882,34,30.51,117.04,64.68,4.05
us,nome,64.5011111,-165.4063889,456,40,US,1558378882,62,30.04,-94.42,87.8,12.75
us,lahaina,20.8783333,-156.6825,457,20,US,1558378883,61,20.87,-156.68,82.4,11.41
gb,hereford,52.05,-2.7166669999999997,458,40,GB,1558378883,59,52.06,-2.72,64.0,3.36
us,hereford,34.815,-102.3972222,458,40,GB,1558378883,59,52.06,-2.72,64.0,3.36
ar,san ramon de la nueva oran,-23.133979999999998,-64.32464499999999,459,100,AR,1558378883,97,-23.13,-64.33,63.42,2.13
ph,manuk mangkaw,4.8,119.85,460,99,PH,1558378883,68,4.8,119.85,86.1,5.57
br,prainha,-1.8,-53.483332999999995,461,100,BR,1558378652,69,-1.8,-53.48,86.1,4.14
us,pacific grove,36.6177778,-121.91555559999999,462,90,US,1558378883,77,36.62,-121.92,64.0,4.7
vn,tam ky,15.566667,108.483333,463,20,VN,1558378884,78,15.57,108.48,82.4,4.7
kz,atasu,48.681389,71.643333,464,100,KZ,1558378884,52,48.68,71.64,55.32,12.21
ru,seshcha,53.718,33.3933,465,1,RU,1558378884,72,53.73,33.34,61.62,6.11
ru,norilsk,69.3535,88.2027,466,75,RU,1558378884,92,69.35,88.2,15.8,29.08
ve,los teques,10.35,-67.0333333,467,40,VE,1558378674,66,10.35,-67.04,87.01,3.36
co,san cristobal,9.878093,-75.252482,468,75,EC,1558378885,37,-0.39,-78.55,71.6,4.7
cu,san cristobal,22.7141667,-83.0480556,468,75,EC,1558378885,37,-0.39,-78.55,71.6,4.7
do,san cristobal,18.4166667,-70.1,468,75,EC,1558378885,37,-0.39,-78.55,71.6,4.7
ec,san cristobal,-0.9166667,-89.5666667,468,75,EC,1558378885,37,-0.39,-78.55,71.6,4.7
mx,san cristobal,20.333610999999998,-101.476389,468,75,EC,1558378885,37,-0.39,-78.55,71.6,4.7
ph,san cristobal,15.566670000000002,120.76666999999999,468,75,EC,1558378885,37,-0.39,-78.55,71.6,4.7
ve,san cristobal,7.766944400000001,-72.225,468,75,EC,1558378885,37,-0.39,-78.55,71.6,4.7
bo,san ramon,-13.2833333,-64.7166667,469,75,NI,1558378828,65,12.92,-85.84,77.0,5.55
bo,san ramon,-14.483333300000002,-63.15,469,75,NI,1558378828,65,12.92,-85.84,77.0,5.55
cr,san ramon,10.088021000000001,-84.470217,469,75,NI,1558378828,65,12.92,-85.84,77.0,5.55
pe,san ramon,-11.133333300000002,-75.33333329999999,469,75,NI,1558378828,65,12.92,-85.84,77.0,5.55
ph,san ramon,17.4135,120.7076,469,75,NI,1558378828,65,12.92,-85.84,77.0,5.55
ph,san ramon,13.6181,123.0383,469,75,NI,1558378828,65,12.92,-85.84,77.0,5.55
us,san ramon,37.78,-121.97694440000001,469,75,NI,1558378828,65,12.92,-85.84,77.0,5.55
pt,horta,38.533333,-28.633333,470,40,ES,1558378885,72,41.43,2.16,64.99,6.93
nc,poum,-20.2333333,164.0166667,471,75,MK,1558378885,71,41.28,20.71,53.6,5.82
au,sawtell,-30.364590000000003,153.10141000000002,472,90,AU,1558378885,93,-30.38,153.1,57.2,3.36
kr,seoul,37.5985,126.9783,473,1,KR,1558378758,93,37.57,126.98,55.4,4.7
za,plettenberg bay,-34.052741999999995,23.3716,474,98,ZA,1558378886,74,-34.05,23.37,55.32,7.18
an,oranjestad,17.466666699999998,-62.9833333,475,20,AW,1558378652,62,12.52,-70.03,87.8,25.28
aw,oranjestad,12.516666699999998,-70.0333333,475,20,AW,1558378652,62,12.52,-70.03,87.8,25.28
br,belmonte,-15.85,-38.9,476,60,PT,1558378886,58,40.36,-7.35,63.0,7.0
au,bundaberg,-24.866211,152.3479,477,0,AU,1558378886,93,-24.87,152.35,61.0,6.93
id,samarinda,-0.5,117.15,478,52,ID,1558378886,98,-0.5,117.14,75.3,2.08
kz,zhezkazgan,47.783333,67.766667,479,87,KZ,1558378887,45,47.8,67.71,56.04,13.85
ng,abonnema,4.708438,6.793071,480,75,NG,1558378887,83,4.71,6.79,80.6,11.41
ke,narok,-1.0833333,35.8666667,481,35,KE,1558378887,91,-1.09,35.87,56.76,6.64
ru,muravlenko,63.783333,73.5,482,28,RU,1558378887,89,63.79,74.5,34.98,7.83
ar,necochea,-38.547259000000004,-58.736753,483,100,AR,1558378887,47,-38.55,-58.74,59.0,5.99
cl,talcahuano,-36.716667,-73.116667,484,40,CL,1558378827,66,-36.72,-73.12,55.4,6.93
ci,san-pedro,4.748508,-6.636301,485,92,CI,1558378888,89,4.75,-6.64,78.9,3.56
us,bismarck,46.8083333,-100.7833333,486,1,US,1558378843,50,46.81,-100.78,60.8,16.11
mx,pinotepa de don luis,16.416667,-97.916667,487,21,MX,1558378888,37,16.43,-97.98,95.1,7.47
et,mizan teferi,6.983333,35.583333,488,59,ET,1558378888,80,6.99,35.58,63.42,3.06
br,bonfim,3.083333,-59.95,489,20,BR,1558378888,39,-20.33,-44.24,82.4,8.05
jp,oga,39.870999,139.84925800000002,490,94,NG,1558378889,72,8.18,5.65,80.88,8.28
cf,bouca,6.5,18.283333300000002,491,68,CF,1558378889,51,6.51,18.28,83.94,4.12
cd,bolobo,-2.166667,16.233333,492,95,CD,1558378889,57,-2.17,16.23,83.94,2.33
gl,nuuk,64.1833333,-51.75,493,20,GL,1558378889,70,64.17,-51.74,42.8,8.05
ph,baylo,7.853889,126.05805600000001,494,1,PH,1558378889,69,7.85,126.06,77.0,1.07
cn,fuxin,42.015556,121.65888899999999,495,4,CN,1558378889,40,42.02,121.65,56.94,11.95
ru,chernaya kholunitsa,58.851144999999995,51.715449,496,90,RU,1558378890,52,58.85,51.72,42.9,5.82
ca,havelock,44.433333000000005,-77.883333,497,1,US,1558378595,51,34.88,-76.9,88.0,12.75
nz,havelock,-41.283333,173.76666699999998,497,1,US,1558378595,51,34.88,-76.9,88.0,12.75
us,havelock,34.8788889,-76.9016667,497,1,US,1558378595,51,34.88,-76.9,88.0,12.75
us,traverse city,44.7630556,-85.6205556,498,75,US,1558378672,62,44.76,-85.62,54.0,14.99
mx,champoton,19.35,-90.716667,499,20,MX,1558378890,39,19.35,-90.72,95.0,11.41
mn,mandalgovi,45.75,106.26666670000002,500,0,MN,1558378890,36,45.76,106.27,48.66,1.34
ch,delemont,47.366429,7.329005,501,75,CH,1558378890,93,47.36,7.34,57.2,11.41
mm,chauk,20.8833333,94.8166667,502,67,MM,1558378891,41,20.89,94.82,91.5,5.55
cd,kambove,-10.876389,26.596944,503,15,CD,1558378891,91,-10.88,26.6,62.52,3.36
br,tutoia,-2.75,-42.266667,504,75,BR,1558378891,79,-2.76,-42.27,86.0,6.93
br,touros,-5.2,-35.466667,505,52,BR,1558378891,75,-5.2,-35.46,84.12,15.88
tz,babati,-4.2166667,35.75,506,59,TZ,1558378891,97,-4.21,35.75,55.5,6.11
za,graaff-reinet,-32.25,24.55,507,19,ZA,1558378808,53,-32.25,24.53,60.0,13.87
nc,noumea,-22.2666667,166.45,508,0,NC,1558378811,77,-22.28,166.46,64.4,2.24
ca,pilot butte,50.466667,-104.416667,509,40,CA,1558378892,33,50.48,-104.42,59.0,10.29
mr,atar,20.5166667,-13.05,510,1,MR,1558378892,12,20.52,-13.05,95.0,9.17
br,valenca do piaui,-6.4,-41.75,511,58,BR,1558378892,67,-6.41,-41.75,84.66,5.37
us,natchez,31.560277799999998,-91.4030556,512,1,US,1558378892,74,31.56,-91.4,87.01,6.93
id,denpasar,-8.65,115.21666699999999,513,20,ID,1558378866,94,-8.65,115.22,80.6,8.05
mm,loikaw,19.6833333,97.2166667,514,100,MM,1558378892,85,19.67,97.21,69.18,3.4
ne,madaoua,14.075833300000001,5.9586111,515,71,NE,1558378892,18,14.07,5.96,104.1,3.36
ke,malindi,-3.2166667,40.1166667,516,75,KE,1558378808,88,-3.22,40.12,77.0,9.17
in,along,28.166666999999997,94.766667,517,28,IN,1558378893,92,28.17,94.8,53.88,4.54
br,bonito,-21.133333,-56.466667,518,0,BR,1558378893,49,-21.13,-56.49,84.3,7.72
br,bonito,-8.483333,-35.733333,518,0,BR,1558378893,49,-21.13,-56.49,84.3,7.72
ca,saint anthony,51.383333,-55.6,519,90,US,1558378893,81,43.97,-111.68,45.0,3.36
ca,high prairie,55.433333,-116.483333,520,0,CA,1558378893,34,55.43,-116.48,61.8,16.46
bs,high rock,26.620833299999997,-78.2833333,521,75,BS,1558378893,83,26.63,-78.28,75.2,12.75
no,raudeberg,61.98055600000001,5.133611,522,20,NO,1558378894,76,61.99,5.14,69.8,4.7
au,kununurra,-15.778129999999999,128.74414099999998,523,75,AU,1558378894,58,-15.77,128.74,82.4,6.93
so,mogadishu,2.0666667000000003,45.3666667,524,79,SO,1558378801,79,2.04,45.34,80.88,9.78
sa,mecca,21.426667000000002,39.826111,525,1,SA,1558378872,48,21.43,39.83,88.62,1.74
ar,viedma,-40.813452000000005,-62.996676,526,14,AR,1558378894,41,-40.81,-62.99,58.56,10.98
mx,tomatlan,19.933332999999998,-105.25,527,0,MX,1558378894,59,19.93,-105.25,84.66,7.9
mx,tomatlan,19.033333,-97.0,527,0,MX,1558378894,59,19.93,-105.25,84.66,7.9
by,lyuban,52.8,28.0,528,39,BY,1558378625,68,52.8,28.0,67.92,12.15
ru,lyuban,59.35,31.216666999999998,528,39,BY,1558378625,68,52.8,28.0,67.92,12.15
ca,bonavista,48.633333,-53.1,529,59,CA,1558378895,74,48.65,-53.11,44.01,15.99
jp,hirara,24.803788,125.302222,530,37,JP,1558378895,67,24.8,125.28,75.48,26.15
nz,russell,-35.266667,174.116667,531,75,AR,1558378895,71,-33.01,-68.8,50.0,12.75
ca,burns lake,54.216667,-125.766667,532,66,CA,1558378895,62,54.23,-125.76,56.4,5.21
tr,hakkari,37.574444,43.740833,533,0,FI,1558378896,46,61.34,23.75,69.8,5.82
ly,marzuq,25.9044444,13.897222199999998,534,84,YE,1558378896,36,14.4,46.47,79.44,6.02
es,villaviciosa,43.480936,-5.435249,535,20,ES,1558378896,71,43.48,-5.43,59.0,6.93
id,padang,-0.9531540000000001,100.367659,536,100,ID,1558378896,82,-0.92,100.36,81.24,7.65
ph,padang,13.2196,123.7655,536,100,ID,1558378896,82,-0.92,100.36,81.24,7.65
sn,matam,15.666666699999999,-13.25,537,1,SN,1558378897,14,15.66,-13.26,102.12,11.61
fr,la seyne-sur-mer,43.098184,5.884715,538,0,FR,1558378897,72,43.1,5.88,69.01,2.24
id,palu,-0.8917,119.8707,539,72,ID,1558378897,80,-0.9,119.87,78.72,3.83
ru,talmenka,53.8183,83.5677,540,40,RU,1558378897,76,53.82,83.56,51.8,11.18
au,tamworth,-31.090481,150.929047,541,64,AU,1558378897,87,-31.09,150.93,44.6,5.82
gb,tamworth,52.61666700000001,-1.6833330000000002,541,64,AU,1558378897,87,-31.09,150.93,44.6,5.82
au,perth,-31.952240000000003,115.861397,542,20,GB,1558378872,82,56.4,-3.43,59.0,3.36
ca,perth,44.883333,-76.233333,542,20,GB,1558378872,82,56.4,-3.43,59.0,3.36
gb,perth,56.4,-3.433333,542,20,GB,1558378872,82,56.4,-3.43,59.0,3.36
sy,yabrud,33.966666700000005,36.6666667,543,0,SY,1558378840,32,33.97,36.66,80.6,8.05
cr,paraiso,9.83832,-83.865565,544,5,MX,1558378898,4,24.01,-104.61,84.2,16.11
mx,paraiso,18.4,-93.233333,544,5,MX,1558378898,4,24.01,-104.61,84.2,16.11
pa,paraiso,9.0333333,-79.6333333,544,5,MX,1558378898,4,24.01,-104.61,84.2,16.11
ph,paraiso,6.473611,124.810833,544,5,MX,1558378898,4,24.01,-104.61,84.2,16.11
ph,paraiso,10.8849,123.3627,544,5,MX,1558378898,4,24.01,-104.61,84.2,16.11
in,veraval,20.9,70.366667,545,0,FR,1558378898,62,49.65,0.71,61.0,8.05
ru,novyy urgal,51.073611,132.564167,546,100,RU,1558378899,93,51.07,132.56,49.74,2.68
cn,tongren,27.717221999999996,109.185278,547,4,CN,1558378899,64,27.72,109.18,55.86,2.84
